sensorname,timeline,humidity,lat,lng,state_name
New York,2022-06-01 21:36:33.977,34.4576,40.6943,-73.9249,New York
Los Angeles,2022-06-01 19:54:05.283,10.4544,34.1141,-118.4068,California
Chicago,2022-06-01 18:48:20.837,14.6432,41.8375,-87.6866,Illinois
Miami,2022-06-01 18:06:30.267,15.824,25.7840,-80.2101,Florida
Dallas,2022-06-01 18:03:44.620,4.8704,32.7935,-96.7667,Texas
Allentown,2022-06-01 16:36:42.607,8.5248,40.5961,-75.4756,Pennsylvania
Concord,2022-06-01 16:36:21.200,5.2256,37.9722,-122.0016,California
Cape Coral,2022-06-01 16:36:03.290,2.208,26.6443,-81.9957,Florida
Houston,2022-06-01 18:00:38.367,4.4608,29.7860,-95.3885,Texas
Philadelphia,2022-06-01 17:57:34.150,14.5408,40.0077,-75.1339,Pennsylvania
Atlanta,2022-06-01 17:51:05.447,4.5408,33.7628,-84.4220,Georgia
Washington,2022-06-01 17:49:40.923,14.1888,38.9047,-77.0163,District of Columbia
Boston,2022-06-01 17:39:39.917,17.616,42.3188,-71.0852,Massachusetts
Phoenix,2022-06-01 17:35:01.673,3.9552,33.5722,-112.0892,Arizona
Detroit,2022-06-01 17:27:25.437,5.9872,42.3834,-83.1024,Michigan
San Francisco,2022-06-01 17:24:31.933,23.0368,37.7558,-122.4449,California
Seattle,2022-06-01 17:24:04.703,10.9248,47.6211,-122.3244,Washington
Durham,2022-06-01 16:31:45.320,3.024,35.9792,-78.9022,North Carolina
Palm Coast,2022-06-01 16:31:40.367,1.1424,29.5389,-81.2457,Florida
San Diego,2022-06-01 17:18:12.447,5.36,32.8313,-117.1222,California
Minneapolis,2022-06-01 17:13:19.563,9.712,44.9635,-93.2678,Minnesota
Tampa,2022-06-01 17:11:25.650,4.288,27.9945,-82.4447,Florida
Brooklyn,2022-06-01 17:10:50.023,48.64,40.6501,-73.9496,New York
Denver,2022-06-01 17:10:23.347,5.776,39.7620,-104.8758,Colorado
Queens,2022-06-01 17:05:19.413,27.2096,40.7498,-73.7976,New York
Baltimore,2022-06-01 17:03:04.037,9.1904,39.3051,-76.6144,Maryland
Las Vegas,2022-06-01 17:01:19.357,5.6128,36.2333,-115.2654,Nevada
St. Louis,2022-06-01 17:00:58.267,6.096,38.6359,-90.2451,Missouri
Riverside,2022-06-01 17:00:26.190,4.9792,33.9381,-117.3949,California
Portland,2022-06-01 16:59:46.503,6.0192,45.5371,-122.6500,Oregon
San Antonio,2022-06-01 16:59:10.273,3.7856,29.4632,-98.5238,Texas
Sacramento,2022-06-01 16:56:36.307,6.3072,38.5677,-121.4685,California
San Juan,2022-06-01 16:56:08.500,9.5424,18.3985,-66.0610,Puerto Rico
San Jose,2022-06-01 16:55:11.117,7.1328,37.3012,-121.8480,California
Orlando,2022-06-01 16:55:05.997,3.1808,28.4773,-81.3370,Florida
Cleveland,2022-06-01 16:54:16.387,6.0896,41.4764,-81.6805,Ohio
Pittsburgh,2022-06-01 16:53:53.240,6.72,40.4397,-79.9763,Pennsylvania
Manhattan,2022-06-01 16:53:28.213,91.6896,40.7834,-73.9662,New York
Austin,2022-06-01 16:53:19.473,3.728,30.3005,-97.7522,Texas
Cincinnati,2022-06-01 16:53:18.750,4.8032,39.1413,-84.5060,Ohio
Indianapolis,2022-06-01 16:52:30.713,2.9696,39.7771,-86.1458,Indiana
Kansas City,2022-06-01 16:51:55.957,1.9264,39.1238,-94.5541,Missouri
Columbus,2022-06-01 16:51:01.813,4.992,39.9862,-82.9855,Ohio
Charlotte,2022-06-01 16:50:40.417,3.5008,35.2083,-80.8303,North Carolina
Virginia Beach,2022-06-01 16:49:49.473,2.2752,36.7335,-76.0435,Virginia
Bronx,2022-06-01 16:49:46.603,42.7392,40.8501,-73.8662,New York
Milwaukee,2022-06-01 16:48:23.997,7.6128,43.0642,-87.9675,Wisconsin
Providence,2022-06-01 16:45:18.337,12.0448,41.8230,-71.4187,Rhode Island
Jacksonville,2022-06-01 16:44:39.057,1.4912,30.3322,-81.6749,Florida
Salt Lake City,2022-06-01 16:44:09.697,2.24,40.7776,-111.9311,Utah
Nashville,2022-06-01 16:43:15.827,1.7312,36.1715,-86.7842,Tennessee
Raleigh,2022-06-01 16:43:07.747,3.9424,35.8324,-78.6429,North Carolina
Memphis,2022-06-01 16:43:06.280,2.7072,35.1087,-89.9663,Tennessee
Richmond,2022-06-01 16:42:19.067,4.7232,37.5295,-77.4756,Virginia
Louisville,2022-06-01 16:41:58.770,2.8992,38.1663,-85.6485,Kentucky
New Orleans,2022-06-01 16:41:11.733,2.8512,30.0687,-89.9288,Louisiana
Bridgeport,2022-06-01 16:41:02.867,11.152,41.1918,-73.1954,Connecticut
Scranton,2022-06-01 16:31:34.820,3.7568,41.4044,-75.6649,Pennsylvania
Aurora,2022-06-01 16:31:33.383,2.9248,39.7083,-104.7237,Colorado
Oklahoma City,2022-06-01 16:41:01.197,1.3216,35.4676,-97.5136,Oklahoma
Buffalo,2022-06-01 16:40:40.557,7.8272,42.9018,-78.8487,New York
Hartford,2022-06-01 16:40:32.383,8.7104,41.7661,-72.6834,Connecticut
Fort Worth,2022-06-01 16:40:06.170,3.1744,32.7817,-97.3474,Texas
Tucson,2022-06-01 16:39:57.077,2.7936,32.1541,-110.8787,Arizona
Honolulu,2022-06-01 16:39:08.087,7.0848,21.3294,-157.8460,Hawaii
McAllen,2022-06-01 16:38:39.220,2.8256,26.2252,-98.2467,Texas
El Paso,2022-06-01 16:38:32.167,3.248,31.8476,-106.4300,Texas
Omaha,2022-06-01 16:38:25.383,4.1824,41.2627,-96.0529,Nebraska
Albuquerque,2022-06-01 16:37:56.803,3.696,35.1054,-106.6465,New Mexico
Birmingham,2022-06-01 16:37:47.670,1.7696,33.5279,-86.7971,Alabama
Sarasota,2022-06-01 16:37:21.337,4.8576,27.3387,-82.5432,Florida
Dayton,2022-06-01 16:37:17.793,3.1072,39.7805,-84.2003,Ohio
Rochester,2022-06-01 16:37:14.140,7.1264,43.1680,-77.6162,New York
Fresno,2022-06-01 16:36:56.437,5.6416,36.7830,-119.7939,California
Tulsa,2022-06-01 16:36:52.300,2.5152,36.1283,-95.9042,Oklahoma
Charleston,2022-06-01 16:35:59.363,1.4752,32.8168,-79.9687,South Carolina
Colorado Springs,2022-06-01 16:35:35.283,2.9824,38.8674,-104.7605,Colorado
Springfield,2022-06-01 16:35:29.677,5.9552,42.1155,-72.5395,Massachusetts
Grand Rapids,2022-06-01 16:35:29.223,5.5008,42.9619,-85.6562,Michigan
Ogden,2022-06-01 16:35:28.967,3.9072,41.2279,-111.9682,Utah
Columbia,2022-06-01 16:35:23.640,1.2096,34.0378,-80.9036,South Carolina
Baton Rouge,2022-06-01 16:35:19.400,3.1776,30.4420,-91.1311,Louisiana
Knoxville,2022-06-01 16:35:17.637,2.3456,35.9692,-83.9496,Tennessee
Mission Viejo,2022-06-01 16:35:14.753,6.6912,33.6096,-117.6551,California
Albany,2022-06-01 16:35:04.773,5.5904,42.6664,-73.7987,New York
Akron,2022-06-01 16:34:44.327,3.936,41.0798,-81.5219,Ohio
New Haven,2022-06-01 16:34:40.633,8.6176,41.3113,-72.9246,Connecticut
Provo,2022-06-01 16:34:37.833,3.4624,40.2457,-111.6457,Utah
Bakersfield,2022-06-01 16:34:30.843,3.1328,35.3529,-119.0359,California
Murrieta,2022-06-01 16:33:58.083,4.192,33.5719,-117.1909,California
Des Moines,2022-06-01 16:33:53.130,3.0176,41.5725,-93.6105,Iowa
Worcester,2022-06-01 16:33:50.433,6.1216,42.2705,-71.8079,Massachusetts
Mesa,2022-06-01 16:33:42.867,4.5312,33.4015,-111.7178,Arizona
Toledo,2022-06-01 16:33:32.597,4.2208,41.6638,-83.5827,Ohio
Palm Bay,2022-06-01 16:33:30.590,1.6256,27.9631,-80.6593,Florida
Staten Island,2022-06-01 16:33:29.697,10.5152,40.5834,-74.1496,New York
Wichita,2022-06-01 16:33:18.667,2.976,37.6895,-97.3443,Kansas
Harrisburg,2022-06-01 16:33:06.210,7.4944,40.2752,-76.8843,Pennsylvania
Long Beach,2022-06-01 16:32:56.030,11.2576,33.7977,-118.1670,California
Little Rock,2022-06-01 16:32:40.763,2.0384,34.7256,-92.3577,Arkansas
Madison,2022-06-01 16:32:39.450,4.0096,43.0822,-89.3930,Wisconsin
Greenville,2022-06-01 16:32:35.253,2.896,34.8354,-82.3646,South Carolina
Reno,2022-06-01 16:32:34.497,2.848,39.5497,-119.8483,Nevada
Port St. Lucie,2022-06-01 16:32:29.133,2.0288,27.2796,-80.3884,Florida
Lancaster,2022-06-01 16:32:24.570,10.1408,40.0420,-76.3012,Pennsylvania
Spokane,2022-06-01 16:32:20.800,3.936,47.6671,-117.4330,Washington
Denton,2022-06-01 16:32:19.850,1.7888,33.2175,-97.1418,Texas
Poughkeepsie,2022-06-01 16:32:17.337,7.2864,41.6950,-73.9211,New York
Oakland,2022-06-01 16:32:16.527,9.3344,37.7904,-122.2166,California
Winston-Salem,2022-06-01 16:32:10.343,2.288,36.1029,-80.2610,North Carolina
Syracuse,2022-06-01 16:32:01.893,7.0272,43.0407,-76.1437,New York
Boise,2022-06-01 16:32:01.500,3.3504,43.6005,-116.2308,Idaho
Chattanooga,2022-06-01 16:31:58.717,1.5712,35.0660,-85.2481,Tennessee
Augusta,2022-06-01 16:31:58.077,0.8064,33.3645,-82.0708,Georgia
Arlington,2022-06-01 16:31:51.220,5.12,32.6998,-97.1250,Texas
Stockton,2022-06-01 16:31:48.870,6.176,37.9765,-121.3109,California
Oxnard,2022-06-01 16:31:32.940,9.6736,34.1964,-119.1815,California
Modesto,2022-06-01 16:31:30.667,6.1536,37.6375,-121.0028,California
Indio,2022-06-01 16:31:21.123,3.344,33.7346,-116.2346,California
Kissimmee,2022-06-01 16:31:19.953,4.1568,28.3041,-81.4169,Florida
Youngstown,2022-06-01 16:31:17.490,2.336,41.0993,-80.6463,Ohio
Pensacola,2022-06-01 16:31:14.660,2.8832,30.4413,-87.1911,Florida
Lancaster,2022-06-01 16:31:07.570,2.064,34.6935,-118.1753,California
Anaheim,2022-06-01 16:31:07.037,8.6752,33.8390,-117.8574,California
Fayetteville,2022-06-01 16:31:04.947,1.9744,36.0714,-94.1661,Arkansas
Jackson,2022-06-01 16:31:04.323,1.8112,32.3157,-90.2125,Mississippi
Victorville,2022-06-01 16:31:04.227,2.0608,34.5277,-117.3536,California
Bonita Springs,2022-06-01 16:31:01.530,1.856,26.3558,-81.7859,Florida
Greensboro,2022-06-01 16:30:57.457,2.8064,36.0956,-79.8271,North Carolina
Corpus Christi,2022-06-01 16:30:56.980,2.4832,27.7254,-97.3767,Texas
Flint,2022-06-01 16:30:53.233,3.5456,43.0236,-83.6921,Michigan
Fayetteville,2022-06-01 16:30:47.317,1.76,35.0850,-78.9772,North Carolina
Santa Ana,2022-06-01 16:30:46.560,15.0304,33.7367,-117.8819,California
Fort Wayne,2022-06-01 16:30:43.120,2.992,41.0888,-85.1436,Indiana
Mobile,2022-06-01 16:30:42.560,1.68,30.6782,-88.1162,Alabama
Lansing,2022-06-01 16:30:40.330,3.7056,42.7142,-84.5601,Michigan
Ann Arbor,2022-06-01 16:30:37.543,5.3024,42.2759,-83.7310,Michigan
Huntsville,2022-06-01 16:30:31.230,1.1296,34.6981,-86.6412,Alabama
Lexington,2022-06-01 16:30:30.693,1.4016,38.0423,-84.4587,Kentucky
Santa Rosa,2022-06-01 16:30:27.827,5.1808,38.4458,-122.7067,California
Antioch,2022-06-01 16:30:27.483,4.72,37.9787,-121.7960,California
Asheville,2022-06-01 16:30:26.567,2.5056,35.5707,-82.5537,North Carolina
Henderson,2022-06-01 16:30:23.907,3.6032,36.0133,-115.0381,Nevada
St. Paul,2022-06-01 16:30:19.827,7.2704,44.9478,-93.1039,Minnesota
Fort Collins,2022-06-01 16:30:18.607,3.584,40.5477,-105.0656,Colorado
Lakeland,2022-06-01 16:30:14.217,2.0576,28.0557,-81.9545,Florida
Springfield,2022-06-01 16:30:09.180,2.512,37.1943,-93.2916,Missouri
The Woodlands,2022-06-01 16:30:08.893,3.264,30.1738,-95.5134,Texas
Shreveport,2022-06-01 16:30:05.337,2.176,32.4653,-93.7955,Louisiana
Trenton,2022-06-01 16:30:05.037,13.5936,40.2237,-74.7641,New Jersey
Plano,2022-06-01 16:30:02.820,4.976,33.0502,-96.7486,Texas
Round Lake Beach,2022-06-01 16:30:00.963,6.688,42.3791,-88.0811,Illinois
South Bend,2022-06-01 16:29:59.520,3.0208,41.6767,-86.2696,Indiana
Savannah,2022-06-01 16:29:58.380,1.68,32.0286,-81.1821,Georgia
Newark,2022-06-01 16:29:55.867,14.4256,40.7245,-74.1725,New Jersey
Davenport,2022-06-01 16:29:55.847,1.9776,41.5565,-90.6053,Iowa
Myrtle Beach,2022-06-01 16:29:55.130,1.7664,33.7094,-78.8844,South Carolina
Lincoln,2022-06-01 16:29:54.730,3.6192,40.8099,-96.6784,Nebraska
Rockford,2022-06-01 16:29:54.287,2.8192,42.2596,-89.0640,Illinois
Reading,2022-06-01 16:29:52.643,11.0848,40.3400,-75.9267,Pennsylvania
Canton,2022-06-01 16:29:51.720,3.3248,40.8078,-81.3676,Ohio
Irvine,2022-06-01 16:29:46.643,5.1328,33.6772,-117.7738,California
Eugene,2022-06-01 16:29:43.963,4.7648,44.0564,-123.1174,Oregon
Chula Vista,2022-06-01 16:29:42.730,6.688,32.6281,-117.0144,California
St. Petersburg,2022-06-01 16:29:37.950,5.2736,27.7931,-82.6652,Florida
Salem,2022-06-01 16:29:37.520,4.3488,44.9233,-123.0244,Oregon
Lafayette,2022-06-01 16:29:37.500,2.8032,30.2082,-92.0325,Louisiana
Laredo,2022-06-01 16:29:36.723,3.0208,27.5625,-99.4874,Texas
Jersey City,2022-06-01 16:29:36.603,22.0096,40.7184,-74.0686,New Jersey
Santa Clarita,2022-06-01 16:29:34.950,3.7088,34.4175,-118.4964,California
Aguadilla,2022-06-01 16:29:34.280,5.3792,18.4382,-67.1537,Puerto Rico
Wilmington,2022-06-01 16:29:34.120,2.9344,34.2099,-77.8866,North Carolina
Lubbock,2022-06-01 16:29:31.787,2.3584,33.5657,-101.8879,Texas
Chandler,2022-06-01 16:29:31.027,4.864,33.2825,-111.8514,Arizona
Scottsdale,2022-06-01 16:29:28.947,1.712,33.6872,-111.8651,Arizona
Tallahassee,2022-06-01 16:29:28.200,2.3584,30.4551,-84.2527,Florida
Montgomery,2022-06-01 16:29:27.490,1.536,32.3482,-86.2668,Alabama
Peoria,2022-06-01 16:29:27.410,2.8992,40.7520,-89.6154,Illinois
Glendale,2022-06-01 16:29:24.240,5.0176,33.5791,-112.2311,Arizona
Columbus,2022-06-01 16:29:23.460,1.1136,32.5100,-84.8771,Georgia
Anchorage,2022-06-01 16:29:22.853,0.2112,61.1508,-149.1091,Alaska
Gilbert,2022-06-01 16:29:22.300,4.4736,33.3100,-111.7463,Arizona
North Las Vegas,2022-06-01 16:29:21.197,3.0144,36.2883,-115.0888,Nevada
Avondale,2022-06-01 16:29:21.053,2.2496,33.3873,-112.3235,Arizona
McKinney,2022-06-01 16:29:18.487,3.5264,33.2016,-96.6670,Texas
Norfolk,2022-06-01 16:29:18.250,5.664,36.8945,-76.2590,Virginia
Chesapeake,2022-06-01 16:29:16.597,0.8832,36.6778,-76.3023,Virginia
Kennewick,2022-06-01 16:29:14.827,3.7184,46.1978,-119.1732,Washington
Winter Haven,2022-06-01 16:29:14.717,1.632,28.0118,-81.7014,Florida
Irving,2022-06-01 16:29:14.427,4.4352,32.8583,-96.9702,Texas
Garland,2022-06-01 16:29:12.573,5.1584,32.9100,-96.6304,Texas
York,2022-06-01 16:29:10.767,10.2752,39.9651,-76.7315,Pennsylvania
Concord,2022-06-01 16:29:10.577,1.8304,35.3933,-80.6369,North Carolina
Arlington,2022-06-01 16:29:10.383,11.2352,38.8786,-77.1011,Virginia
Atlantic City,2022-06-01 16:29:10.263,4.3392,39.3797,-74.4527,New Jersey
Visalia,2022-06-01 16:29:09.133,4.3328,36.3276,-119.3269,California
Fremont,2022-06-01 16:29:08.780,3.7024,37.5265,-121.9843,California
Hialeah,2022-06-01 16:29:07.827,13.3888,25.8696,-80.3045,Florida
Nashua,2022-06-01 16:29:05.360,3.568,42.7491,-71.4910,New Hampshire
Killeen,2022-06-01 16:29:05.263,3.344,31.0753,-97.7297,Texas
Gulfport,2022-06-01 16:29:04.107,1.5904,30.4274,-89.0704,Mississippi
Brownsville,2022-06-01 16:29:03.337,1.7088,25.9975,-97.4580,Texas
Evansville,2022-06-01 16:29:01.287,3.088,37.9881,-87.5341,Indiana
Appleton,2022-06-01 16:28:59.677,3.68,44.2780,-88.3892,Wisconsin
Navarre,2022-06-01 16:28:57.900,2,30.4174,-86.8907,Florida
Bel Air South,2022-06-01 16:28:56.783,3.1936,39.5022,-76.3113,Maryland
Kalamazoo,2022-06-01 16:28:54.510,3.8048,42.2749,-85.5882,Michigan
Bremerton,2022-06-01 16:28:53.487,1.792,47.5436,-122.7121,Washington
Spring Valley,2022-06-01 16:28:52.647,7.6096,36.0952,-115.2636,Nevada
San Bernardino,2022-06-01 16:28:50.733,4.3104,34.1416,-117.2943,California
Roanoke,2022-06-01 16:28:50.337,2.88,37.2785,-79.9581,Virginia
Spartanburg,2022-06-01 16:28:49.970,2.304,34.9442,-81.9251,South Carolina
Tacoma,2022-06-01 16:28:49.717,5.36,47.2431,-122.4531,Washington
Enterprise,2022-06-01 16:28:48.540,4.016,36.0091,-115.2278,Nevada
Green Bay,2022-06-01 16:28:48.387,2.8384,44.5148,-87.9895,Wisconsin
Portland,2022-06-01 16:28:47.937,3.824,43.6773,-70.2715,Maine
Thousand Oaks,2022-06-01 16:28:46.757,2.8512,34.1914,-118.8756,California
Fontana,2022-06-01 16:28:46.653,6.0992,34.0968,-117.4599,California
Hickory,2022-06-01 16:28:44.993,1.648,35.7410,-81.3223,North Carolina
Moreno Valley,2022-06-01 16:28:42.700,5.024,33.9244,-117.2045,California
Deltona,2022-06-01 16:28:39.863,3.04,28.9050,-81.2137,Florida
Fargo,2022-06-01 16:28:39.423,3.0624,46.8651,-96.8292,North Dakota
Santa Barbara,2022-06-01 16:28:39.167,5.7568,34.4285,-119.7202,California
College Station,2022-06-01 16:28:37.797,2.7936,30.5852,-96.2959,Texas
Gainesville,2022-06-01 16:28:37.490,2.6112,29.6804,-82.3459,Florida
Amarillo,2022-06-01 16:28:36.853,2.4032,35.1984,-101.8316,Texas
Norwich,2022-06-01 16:28:35.677,1.7216,41.5495,-72.0882,Connecticut
Olympia,2022-06-01 16:28:34.787,3.5456,47.0417,-122.8959,Washington
Yonkers,2022-06-01 16:28:34.133,13.7344,40.9466,-73.8673,New York
Huntington Beach,2022-06-01 16:28:33.727,9.1424,33.6960,-118.0018,California
Glendale,2022-06-01 16:28:33.307,8.08,34.1819,-118.2468,California
Aurora,2022-06-01 16:28:33.277,5.4688,41.7638,-88.2902,Illinois
Huntington,2022-06-01 16:28:33.083,3.5136,38.4109,-82.4345,West Virginia
Sunrise Manor,2022-06-01 16:28:32.137,7.2608,36.1783,-115.0487,Nevada
North Port,2022-06-01 16:28:29.797,0.8544,27.0576,-82.1977,Florida
Hagerstown,2022-06-01 16:28:28.553,4.064,39.6401,-77.7217,Maryland
Grand Prairie,2022-06-01 16:28:27.787,3.2992,32.6871,-97.0208,Texas
Overland Park,2022-06-01 16:28:27.363,3.1776,38.8870,-94.6870,Kansas
Paradise,2022-06-01 16:28:27.100,5.6256,36.0872,-115.1355,Nevada
Tempe,2022-06-01 16:28:25.557,5.9264,33.3881,-111.9319,Arizona
Salinas,2022-06-01 16:28:24.297,8.2048,36.6883,-121.6317,California
Erie,2022-06-01 16:28:23.463,6.2336,42.1167,-80.0733,Pennsylvania
Cedar Rapids,2022-06-01 16:28:22.567,2.2784,41.9662,-91.6783,Iowa
Waterbury,2022-06-01 16:28:22.557,4.672,41.5582,-73.0361,Connecticut
Frisco,2022-06-01 16:28:22.337,3.3888,33.1560,-96.8216,Texas
Waco,2022-06-01 16:28:20.647,1.9168,31.5599,-97.1882,Texas
Gastonia,2022-06-01 16:28:18.853,1.8304,35.2494,-81.1854,North Carolina
Clarksville,2022-06-01 16:28:17.747,1.9392,36.5692,-87.3413,Tennessee
Vancouver,2022-06-01 16:28:16.743,4.6336,45.6366,-122.5967,Washington
Lorain,2022-06-01 16:28:15.967,3.3408,41.4409,-82.1840,Ohio
Nampa,2022-06-01 16:28:15.837,3.5712,43.5844,-116.5638,Idaho
Fort Lauderdale,2022-06-01 16:28:15.767,6.4928,26.1412,-80.1464,Florida
Hemet,2022-06-01 16:28:14.330,3.5712,33.7341,-116.9969,California
Newport News,2022-06-01 16:28:13.533,3.216,37.1051,-76.5185,Virginia
Ontario,2022-06-01 16:28:12.143,4.4032,34.0393,-117.6064,California
Rancho Cucamonga,2022-06-01 16:28:12.010,5.4848,34.1247,-117.5667,California
Vallejo,2022-06-01 16:28:11.207,4.9248,38.1125,-122.2342,California
Oceanside,2022-06-01 16:28:09.643,5.2576,33.2247,-117.3083,California
Vero Beach South,2022-06-01 16:28:08.697,3.0048,27.6132,-80.4163,Florida
Ocala,2022-06-01 16:28:08.567,1.568,29.1780,-82.1511,Florida
Sioux Falls,2022-06-01 16:28:07.870,2.8256,43.5396,-96.7311,South Dakota
Danbury,2022-06-01 16:28:07.457,2.4864,41.4015,-73.4709,Connecticut
Elk Grove,2022-06-01 16:28:07.320,5.1008,38.4161,-121.3842,California
High Point,2022-06-01 16:28:07.273,2.464,35.9910,-79.9937,North Carolina
Garden Grove,2022-06-01 16:28:06.750,11.888,33.7787,-117.9601,California
Peoria,2022-06-01 16:28:06.060,1.2064,33.7843,-112.2989,Arizona
Pembroke Pines,2022-06-01 16:28:05.930,6.4992,26.0128,-80.3382,Florida
Medford,2022-06-01 16:28:05.610,3.9168,42.3372,-122.8540,Oregon
Murfreesboro,2022-06-01 16:28:03.193,2.7808,35.8490,-86.4121,Tennessee
Cary,2022-06-01 16:28:03.127,3.5264,35.7819,-78.8195,North Carolina
Lafayette,2022-06-01 16:28:02.113,3.0496,40.3991,-86.8593,Indiana
Corona,2022-06-01 16:28:02.063,5.2,33.8616,-117.5649,California
Santa Cruz,2022-06-01 16:27:59.883,6.304,36.9789,-122.0346,California
Spring Hill,2022-06-01 16:27:59.477,2.3424,28.4798,-82.5300,Florida
Muskegon,2022-06-01 16:27:58.087,3.2576,43.2281,-86.2562,Michigan
Manchester,2022-06-01 16:27:57.437,4.1984,42.9848,-71.4447,New Hampshire
Marysville,2022-06-01 16:27:56.650,4.144,48.0809,-122.1561,Washington
Springfield,2022-06-01 16:27:56.297,2.3232,39.7709,-89.6540,Illinois
Frederick,2022-06-01 16:27:52.817,3.7056,39.4337,-77.4141,Maryland
Hayward,2022-06-01 16:27:52.767,4.2816,37.6328,-122.0766,California
Alexandria,2022-06-01 16:27:52.260,13.0944,38.8185,-77.0861,Virginia
Bayamón,2022-06-01 16:27:51.467,7.2,18.3794,-66.1635,Puerto Rico
Port Arthur,2022-06-01 16:27:50.937,0.8736,29.8554,-93.9264,Texas
Lakewood,2022-06-01 16:27:49.683,4.4256,39.6977,-105.1172,Colorado
Fredericksburg,2022-06-01 16:27:49.363,3.4336,38.2992,-77.4872,Virginia
Leesburg,2022-06-01 16:27:48.250,0.7424,28.7672,-81.8962,Florida
Hollywood,2022-06-01 16:27:47.783,6.9664,26.0293,-80.1679,Florida
Palmdale,2022-06-01 16:27:47.190,1.7824,34.5944,-118.1057,California
Macon,2022-06-01 16:27:46.977,0.7552,32.8065,-83.6974,Georgia
Kansas City,2022-06-01 16:27:46.963,1.5136,39.1235,-94.7443,Kansas
Champaign,2022-06-01 16:27:46.890,4.7552,40.1142,-88.2737,Illinois
Sunnyvale,2022-06-01 16:27:46.520,8.544,37.3836,-122.0255,California
Pasadena,2022-06-01 16:27:46.487,4.3136,29.6575,-95.1498,Texas
Pomona,2022-06-01 16:27:45.073,8.1216,34.0585,-117.7626,California
Escondido,2022-06-01 16:27:44.347,4.9728,33.1348,-117.0723,California
Mauldin,2022-06-01 16:27:43.637,2.6944,34.7821,-82.3032,South Carolina
New Bedford,2022-06-01 16:27:43.520,5.888,41.6697,-70.9428,Massachusetts
Panama City,2022-06-01 16:27:43.317,1.264,30.1995,-85.6003,Florida
Tuscaloosa,2022-06-01 16:27:43.253,2.0064,33.2348,-87.5268,Alabama
Warner Robins,2022-06-01 16:27:42.120,2.5152,32.5961,-83.6527,Georgia
Naperville,2022-06-01 16:27:41.683,4.6688,41.7480,-88.1659,Illinois
Merced,2022-06-01 16:27:41.640,4.4672,37.3057,-120.4779,California
Elkhart,2022-06-01 16:27:41.630,2.3648,41.6916,-85.9627,Indiana
Joliet,2022-06-01 16:27:41.273,2.8192,41.5188,-88.1499,Illinois
Binghamton,2022-06-01 16:27:40.820,5.2832,42.1014,-75.9093,New York
Houma,2022-06-01 16:27:40.617,2.8224,29.5800,-90.7059,Louisiana
Bellevue,2022-06-01 16:27:40.097,5.3952,47.5951,-122.1535,Washington
Topeka,2022-06-01 16:27:39.667,2.528,39.0346,-95.6955,Kansas
Paterson,2022-06-01 16:27:39.433,21.3632,40.9147,-74.1624,New Jersey
Lake Charles,2022-06-01 16:27:38.980,2.1056,30.2010,-93.2111,Louisiana
Torrance,2022-06-01 16:27:38.380,8.6944,33.8346,-118.3416,California
Thornton,2022-06-01 16:27:38.137,4.9568,39.9197,-104.9438,Colorado
Tyler,2022-06-01 16:27:37.567,2.2752,32.3184,-95.3062,Texas
Athens,2022-06-01 16:27:37.030,1.3248,33.9508,-83.3689,Georgia
Beaumont,2022-06-01 16:27:36.710,1.7568,30.0849,-94.1451,Texas
Pueblo,2022-06-01 16:27:36.677,2.4928,38.2701,-104.6114,Colorado
Odessa,2022-06-01 16:27:36.530,2.9632,31.8801,-102.3448,Texas
Mesquite,2022-06-01 16:27:36.380,3.6288,32.7602,-96.5865,Texas
Fairfield,2022-06-01 16:27:35.993,3.4592,38.2583,-122.0335,California
Pasadena,2022-06-01 16:27:35.967,7.6416,34.1597,-118.1390,California
Charleston,2022-06-01 16:27:35.590,1.8528,38.3484,-81.6322,West Virginia
Fullerton,2022-06-01 16:27:35.010,7.7728,33.8841,-117.9279,California
Miramar,2022-06-01 16:27:34.430,6.0128,25.9773,-80.3351,Florida
Midland,2022-06-01 16:27:34.060,2.3104,32.0243,-102.1147,Texas
Gainesville,2022-06-01 16:27:33.457,1.5328,34.2902,-83.8294,Georgia
Orange,2022-06-01 16:27:33.273,6.704,33.8038,-117.8218,California
Olathe,2022-06-01 16:27:33.167,2.7776,38.8833,-94.8200,Kansas
Santa Maria,2022-06-01 16:27:33.023,5.7152,34.9333,-120.4431,California
Surprise,2022-06-01 16:27:32.957,1.5552,33.6815,-112.4515,Arizona
Roseville,2022-06-01 16:27:32.810,3.8912,38.7703,-121.3196,California
Metairie,2022-06-01 16:27:32.460,7.3568,29.9977,-90.1780,Louisiana
Yuma,2022-06-01 16:27:31.563,0.9952,32.5995,-114.5491,Arizona
Carrollton,2022-06-01 16:27:31.270,4.6272,32.9890,-96.8999,Texas
Burlington,2022-06-01 16:27:31.047,2.2368,36.0760,-79.4685,North Carolina
West Valley City,2022-06-01 16:27:29.560,4.6752,40.6886,-112.0123,Utah
Hampton,2022-06-01 16:27:29.120,3.2448,37.0551,-76.3630,Virginia
Racine,2022-06-01 16:27:28.630,6.1376,42.7274,-87.8135,Wisconsin
Greeley,2022-06-01 16:27:28.367,2.7104,40.4152,-104.7706,Colorado
Harlingen,2022-06-01 16:27:28.257,2,26.1916,-97.6977,Texas
Carolina,2022-06-01 16:27:28.157,8.0064,18.4054,-65.9792,Puerto Rico
Warren,2022-06-01 16:27:28.137,4.8224,42.4934,-83.0270,Michigan
Grand Junction,2022-06-01 16:27:28.023,1.9392,39.0877,-108.5673,Colorado
Coral Springs,2022-06-01 16:27:27.320,7.2064,26.2702,-80.2591,Florida
Columbia,2022-06-01 16:27:26.757,2.2752,38.9472,-92.3268,Missouri
Bloomington,2022-06-01 16:27:26.660,3.5392,40.4757,-88.9703,Illinois
Sterling Heights,2022-06-01 16:27:26.247,4.4832,42.5809,-83.0305,Michigan
Stamford,2022-06-01 16:27:24.007,4.2688,41.1039,-73.5585,Connecticut
Kent,2022-06-01 16:27:23.987,4.7584,47.3887,-122.2128,Washington
Bellingham,2022-06-01 16:27:23.603,3.9872,48.7548,-122.4690,Washington
Las Cruces,2022-06-01 16:27:23.487,1.6512,32.3265,-106.7893,New Mexico
Greenville,2022-06-01 16:27:23.323,3.1328,35.5943,-77.3760,North Carolina
Round Rock,2022-06-01 16:27:22.763,4.2272,30.5270,-97.6642,Texas
Elizabeth,2022-06-01 16:27:22.433,12.8864,40.6658,-74.1913,New Jersey
South Lyon,2022-06-01 16:27:22.020,3.9008,42.4614,-83.6526,Michigan
Simi Valley,2022-06-01 16:27:20.733,3.7376,34.2663,-118.7490,California
Santa Clara,2022-06-01 16:27:20.673,8.5664,37.3646,-121.9680,California
Yakima,2022-06-01 16:27:20.437,4.1664,46.5923,-120.5496,Washington
Johnson City,2022-06-01 16:27:20.217,1.9072,36.3406,-82.3806,Tennessee
Dover,2022-06-01 16:27:19.880,1.9744,39.1610,-75.5202,Delaware
Pearland,2022-06-01 16:27:19.767,3.1936,29.5581,-95.3218,Texas
Lynchburg,2022-06-01 16:27:19.660,2.0416,37.4003,-79.1909,Virginia
Fort Smith,2022-06-01 16:27:19.257,1.6928,35.3495,-94.3695,Arkansas
Yuba City,2022-06-01 16:27:18.767,5.4976,39.1357,-121.6383,California
Lehigh Acres,2022-06-01 16:27:18.473,1.6576,26.6120,-81.6388,Florida
Kenosha,2022-06-01 16:27:17.817,4.3488,42.5865,-87.8773,Wisconsin
Arecibo,2022-06-01 16:27:17.450,3.104,18.4491,-66.7387,Puerto Rico
Berkeley,2022-06-01 16:27:17.017,14.5728,37.8722,-122.2760,California
Boulder,2022-06-01 16:27:16.500,5.104,40.0248,-105.2524,Colorado
Texas City,2022-06-01 16:27:15.967,0.9216,29.4154,-94.9682,Texas
Iowa City,2022-06-01 16:27:14.877,3.6608,41.6559,-91.5303,Iowa
Waldorf,2022-06-01 16:27:14.657,2.6464,38.6085,-76.9194,Maryland
East Los Angeles,2022-06-01 16:27:14.453,19.9744,34.0326,-118.1691,California
Redding,2022-06-01 16:27:14.320,1.904,40.5698,-122.3650,California
Arvada,2022-06-01 16:27:14.180,3.8176,39.8320,-105.1510,Colorado
The Villages,2022-06-01 16:27:13.247,3.0816,28.9034,-81.9887,Florida
Saginaw,2022-06-01 16:27:12.797,3.4976,43.4199,-83.9501,Michigan
Ponce,2022-06-01 16:27:12.590,4.7904,18.0127,-66.6212,Puerto Rico
Richardson,2022-06-01 16:27:12.533,5.1264,32.9716,-96.7093,Texas
Sugar Land,2022-06-01 16:27:12.513,3.6192,29.5935,-95.6358,Texas
Leominster,2022-06-01 16:27:12.140,1.7824,42.5209,-71.7717,Massachusetts
St. Cloud,2022-06-01 16:27:12.090,2.112,45.5340,-94.1718,Minnesota
Duluth,2022-06-01 16:27:11.883,1.4784,46.7756,-92.1393,Minnesota
Cambridge,2022-06-01 16:27:11.773,22.768,42.3759,-71.1185,Massachusetts
Monroe,2022-06-01 16:27:11.147,1.9936,32.5185,-92.0774,Louisiana
Independence,2022-06-01 16:27:11.090,1.8528,39.0871,-94.3501,Missouri
Rochester,2022-06-01 16:27:10.913,2.6048,44.0154,-92.4780,Minnesota
Rock Hill,2022-06-01 16:27:10.697,2.3552,34.9415,-81.0241,South Carolina
Bloomington,2022-06-01 16:27:10.567,4.5024,39.1637,-86.5257,Indiana
Billings,2022-06-01 16:27:10.543,3.024,45.7891,-108.5526,Montana
Seaside,2022-06-01 16:27:10.140,4.7136,36.6224,-121.8199,California
Clearwater,2022-06-01 16:27:09.927,5.4912,27.9790,-82.7623,Florida
Brandon,2022-06-01 16:27:09.860,4.32,27.9367,-82.3000,Florida
Burlington,2022-06-01 16:27:09.633,5.1072,44.4876,-73.2316,Vermont
Pottstown,2022-06-01 16:27:09.363,5.7632,40.2508,-75.6445,Pennsylvania
Waterloo,2022-06-01 16:27:09.217,1.3568,42.4918,-92.3522,Iowa
West Jordan,2022-06-01 16:27:09.130,4.4,40.6024,-112.0008,Utah
Coeur d'Alene,2022-06-01 16:27:08.830,3.9488,47.7040,-116.7936,Idaho
Westminster,2022-06-01 16:27:08.783,4.4896,39.8837,-105.0624,Colorado
St. George,2022-06-01 16:27:08.563,1.3728,37.0758,-113.5752,Utah
Gilroy,2022-06-01 16:27:08.410,4.1248,37.0046,-121.5854,California
Carlsbad,2022-06-01 16:27:08.360,3.7408,33.1246,-117.2834,California
El Monte,2022-06-01 16:27:07.867,14.7264,34.0739,-118.0291,California
North Charleston,2022-06-01 16:27:07.830,1.8112,32.9067,-80.0722,South Carolina
Chico,2022-06-01 16:27:07.150,3.5712,39.7578,-121.8161,California
Temecula,2022-06-01 16:27:07.067,3.7472,33.4928,-117.1315,California
Costa Mesa,2022-06-01 16:27:06.907,8.8288,33.6667,-117.9135,California
Utica,2022-06-01 16:27:06.897,4.4288,43.0962,-75.2261,New York
Clovis,2022-06-01 16:27:06.613,5.4752,36.8278,-119.6830,California
Norman,2022-06-01 16:27:06.527,0.8544,35.2335,-97.3471,Oklahoma
Elgin,2022-06-01 16:27:06.013,3.6384,42.0383,-88.3240,Illinois
Centennial,2022-06-01 16:27:05.280,4.6272,39.5926,-104.8673,Colorado
Lowell,2022-06-01 16:27:05.260,10.1024,42.6389,-71.3217,Massachusetts
Downey,2022-06-01 16:27:05.213,11.0784,33.9379,-118.1311,California
Pompano Beach,2022-06-01 16:27:05.153,5.7184,26.2428,-80.1312,Florida
West Palm Beach,2022-06-01 16:27:04.957,2.5472,26.7469,-80.1320,Florida
Abilene,2022-06-01 16:27:04.943,1.4432,32.4543,-99.7384,Texas
Everett,2022-06-01 16:27:04.790,4.1248,47.9525,-122.1669,Washington
Miami Gardens,2022-06-01 16:27:04.717,7.5072,25.9433,-80.2426,Florida
Gresham,2022-06-01 16:27:04.407,5.8144,45.5021,-122.4413,Oregon
El Centro,2022-06-01 16:27:04.383,4.576,32.7865,-115.5595,California
Richmond,2022-06-01 16:27:04.000,4.5216,37.9477,-122.3389,California
Inglewood,2022-06-01 16:27:03.260,14.8928,33.9566,-118.3444,California
Salisbury,2022-06-01 16:27:02.933,2.944,38.3756,-75.5865,Maryland
Broken Arrow,2022-06-01 16:27:02.827,2.1344,36.0380,-95.7806,Oklahoma
San Buenaventura,2022-06-01 16:27:02.417,6.1216,34.2741,-119.2314,California
Sandy Springs,2022-06-01 16:27:02.130,3.5488,33.9366,-84.3703,Georgia
Hillsboro,2022-06-01 16:27:01.977,5.1968,45.5273,-122.9360,Oregon
Sioux City,2022-06-01 16:27:01.883,1.744,42.4959,-96.3901,Iowa
Jacksonville,2022-06-01 16:27:01.840,1.8848,34.7289,-77.3941,North Carolina
Meridian,2022-06-01 16:27:01.737,3.7952,43.6116,-116.3977,Idaho
Lewisville,2022-06-01 16:27:01.690,3.5968,33.0454,-96.9815,Texas
Bend,2022-06-01 16:27:01.410,3.5648,44.0563,-121.3095,Oregon
Daly City,2022-06-01 16:27:01.147,17.3376,37.6862,-122.4685,California
Highlands Ranch,2022-06-01 16:27:00.967,5.4464,39.5419,-104.9708,Colorado
Jurupa Valley,2022-06-01 16:27:00.597,3.0656,34.0010,-117.4706,California
Temple,2022-06-01 16:27:00.283,1.328,31.1068,-97.3891,Texas
Logan,2022-06-01 16:27:00.270,3.5488,41.7399,-111.8422,Utah
Kailua,2022-06-01 16:27:00.210,6.0224,21.3920,-157.7396,Hawaii
West Covina,2022-06-01 16:26:59.757,8.1504,34.0555,-117.9113,California
Davie,2022-06-01 16:26:59.543,3.7376,26.0789,-80.2870,Florida
Columbia,2022-06-01 16:26:59.363,4.0768,39.2004,-76.8590,Maryland
League City,2022-06-01 16:26:59.360,2.5376,29.4874,-95.1087,Texas
Mandeville,2022-06-01 16:26:59.047,2.1792,30.3751,-90.0904,Louisiana
San Tan Valley,2022-06-01 16:26:58.887,1.7088,33.1786,-111.5629,Arizona
Turlock,2022-06-01 16:26:58.670,5.312,37.5053,-120.8588,California
Norwalk,2022-06-01 16:26:58.473,13.3024,33.9069,-118.0829,California
Allen,2022-06-01 16:26:57.990,4.8672,33.1088,-96.6735,Texas
San Germán,2022-06-01 16:26:57.697,4.064,18.0827,-67.0460,Puerto Rico
San Mateo,2022-06-01 16:26:57.570,10.5504,37.5522,-122.3121,California
Rialto,2022-06-01 16:26:57.500,5.3088,34.1175,-117.3892,California
Burbank,2022-06-01 16:26:57.360,7.376,34.1879,-118.3235,California
El Cajon,2022-06-01 16:26:57.200,8.7904,32.8017,-116.9604,California
Eau Claire,2022-06-01 16:26:57.147,2.5824,44.8197,-91.4948,Wisconsin
Sparks,2022-06-01 16:26:56.847,3.488,39.5736,-119.7161,Nevada
Charlottesville,2022-06-01 16:26:56.113,5.6928,38.0375,-78.4855,Virginia
Renton,2022-06-01 16:26:55.820,5.36,47.4784,-122.1918,Washington
Idaho Falls,2022-06-01 16:26:55.277,3.2128,43.4871,-112.0362,Idaho
Vista,2022-06-01 16:26:54.610,6.6336,33.1896,-117.2386,California
Holland,2022-06-01 16:26:54.153,2.4672,42.7677,-86.0984,Michigan
Longmont,2022-06-01 16:26:54.097,4.1152,40.1686,-105.1005,Colorado
Wichita Falls,2022-06-01 16:26:53.957,1.7952,33.9072,-98.5291,Texas
Lafayette,2022-06-01 16:26:53.427,3.744,39.9946,-105.0998,Colorado
Vacaville,2022-06-01 16:26:53.347,4.1344,38.3587,-121.9673,California
Spokane Valley,2022-06-01 16:26:53.227,3.2512,47.6626,-117.2346,Washington
La Crosse,2022-06-01 16:26:53.177,2.9312,43.8241,-91.2268,Wisconsin
Carmel,2022-06-01 16:26:53.080,2.4928,39.9650,-86.1460,Indiana
Boca Raton,2022-06-01 16:26:52.727,4.1824,26.3752,-80.1080,Florida
Longview,2022-06-01 16:26:52.727,1.8176,32.5193,-94.7622,Texas
Kingsport,2022-06-01 16:26:52.717,1.2608,36.5224,-82.5454,Tennessee
South Fulton,2022-06-01 16:26:52.537,1.4272,33.6273,-84.5800,Georgia
Beaverton,2022-06-01 16:26:52.517,6.2112,45.4779,-122.8168,Oregon
Rio Rancho,2022-06-01 16:26:51.927,1.168,35.2873,-106.6982,New Mexico
Prescott Valley,2022-06-01 16:26:51.850,1.392,34.5980,-112.3185,Arizona
Orem,2022-06-01 16:26:51.833,6.496,40.2981,-111.6994,Utah
Edinburg,2022-06-01 16:26:51.683,2.6976,26.3196,-98.1597,Texas
San Angelo,2022-06-01 16:26:51.430,2.08,31.4424,-100.4504,Texas
Portsmouth,2022-06-01 16:26:51.407,1.6896,43.0580,-70.7826,New Hampshire
Tracy,2022-06-01 16:26:51.323,4.3648,37.7269,-121.4523,California
Federal Way,2022-06-01 16:26:50.763,5.3632,47.3091,-122.3358,Washington
Lawrence,2022-06-01 16:26:50.643,3.52,38.9597,-95.2642,Kansas
Manteca,2022-06-01 16:26:50.503,4.6816,37.7927,-121.2264,California
San Marcos,2022-06-01 16:26:50.170,4.88,33.1350,-117.1743,California
Sandy,2022-06-01 16:26:50.087,4.9152,40.5709,-111.8506,Utah
Riverview,2022-06-01 16:26:49.800,2.5632,27.8227,-82.3023,Florida
Compton,2022-06-01 16:26:49.753,11.8016,33.8930,-118.2274,California
Brockton,2022-06-01 16:26:49.690,5.5424,42.0821,-71.0242,Massachusetts
Santa Fe,2022-06-01 16:26:49.447,1.9968,35.6619,-105.9819,New Mexico
Hanford,2022-06-01 16:26:49.410,4.0704,36.3274,-119.6549,California
Middletown,2022-06-01 16:26:49.247,2.304,39.5033,-84.3659,Ohio
Hesperia,2022-06-01 16:26:49.113,1.616,34.3975,-117.3147,California
Portsmouth,2022-06-01 16:26:48.910,3.5232,36.8468,-76.3540,Virginia
South Gate,2022-06-01 16:26:48.857,16.2016,33.9447,-118.1926,California
Roswell,2022-06-01 16:26:48.833,2.8768,34.0391,-84.3513,Georgia
Sunrise,2022-06-01 16:26:48.607,7.2192,26.1547,-80.2997,Florida
Bowling Green,2022-06-01 16:26:48.507,2.1888,36.9716,-86.4378,Kentucky
Lee's Summit,2022-06-01 16:26:48.470,1.9136,38.9171,-94.3816,Missouri
Slidell,2022-06-01 16:26:48.447,2.2816,30.2887,-89.7828,Louisiana
Blacksburg,2022-06-01 16:26:48.347,2.7776,37.2300,-80.4279,Virginia
Quincy,2022-06-01 16:26:48.340,7.0368,42.2506,-71.0187,Massachusetts
Plantation,2022-06-01 16:26:48.317,5.36,26.1259,-80.2617,Florida
